{
"type": "FeatureCollection",
"crs": { "type": "name", "properties": { "name": "urn:ogc:def:crs:OGC:1.3:CRS84" } },
                                                                                
"features": [
{ "type": "Feature", "properties": { "CODE": "013", "NAME": "Mkokotoni" }, "geometry": { "type": "Point", "coordinates": [ 39.267063687652872, -5.881736395096539 ] } },
{ "type": "Feature", "properties": { "CODE": "021", "NAME": "Mto wa Pwani" }, "geometry": { "type": "Point", "coordinates": [ 39.245761719313784, -5.888510969242529 ] } },
{ "type": "Feature", "properties": { "CODE": "031", "NAME": "Pale" }, "geometry": { "type": "Point", "coordinates": [ 39.260309442943111, -5.900645489524337 ] } },
{ "type": "Feature", "properties": { "CODE": "041", "NAME": "Kivunge" }, "geometry": { "type": "Point", "coordinates": [ 39.28198363632427, -5.881161886484351 ] } },
{ "type": "Feature", "properties": { "CODE": "051", "NAME": "Tumbatu Gomani" }, "geometry": { "type": "Point", "coordinates": [ 39.225205492162424, -5.801275136380706 ] } },
{ "type": "Feature", "properties": { "CODE": "061", "NAME": "Tumbatu Jongowe" }, "geometry": { "type": "Point", "coordinates": [ 39.225591708705231, -5.850898577737401 ] } },
{ "type": "Feature", "properties": { "CODE": "071", "NAME": "Mkwajuni" }, "geometry": { "type": "Point", "coordinates": [ 39.287341968474308, -5.888216184947625 ] } },
{ "type": "Feature", "properties": { "CODE": "081", "NAME": "Kibeni" }, "geometry": { "type": "Point", "coordinates": [ 39.296948278427514, -5.873803590953652 ] } },
{ "type": "Feature", "properties": { "CODE": "091", "NAME": "Muwange" }, "geometry": { "type": "Point", "coordinates": [ 39.287377017169355, -5.866618428574603 ] } },
{ "type": "Feature", "properties": { "CODE": "101", "NAME": "Pitanazako" }, "geometry": { "type": "Point", "coordinates": [ 39.278904751705753, -5.873187689900555 ] } },
{ "type": "Feature", "properties": { "CODE": "111", "NAME": "Potoa" }, "geometry": { "type": "Point", "coordinates": [ 39.289175323290678, -5.853314621212795 ] } },
{ "type": "Feature", "properties": { "CODE": "121", "NAME": "Fukuchani" }, "geometry": { "type": "Point", "coordinates": [ 39.303014583953221, -5.831737386237616 ] } },
{ "type": "Feature", "properties": { "CODE": "131", "NAME": "Kidoti" }, "geometry": { "type": "Point", "coordinates": [ 39.326731684767488, -5.802729932812645 ] } },
{ "type": "Feature", "properties": { "CODE": "141", "NAME": "Tazari" }, "geometry": { "type": "Point", "coordinates": [ 39.323983042605832, -5.782144159559644 ] } },
{ "type": "Feature", "properties": { "CODE": "151", "NAME": "Kigunda" }, "geometry": { "type": "Point", "coordinates": [ 39.29923804065124, -5.775939442868567 ] } },
{ "type": "Feature", "properties": { "CODE": "162", "NAME": "Nungwi" }, "geometry": { "type": "Point", "coordinates": [ 39.303811335216146, -5.738061255644356 ] } },
{ "type": "Feature", "properties": { "CODE": "171", "NAME": "Matemwe" }, "geometry": { "type": "Point", "coordinates": [ 39.333010412786429, -5.888471382241732 ] } },
{ "type": "Feature", "properties": { "CODE": "181", "NAME": "Kijini" }, "geometry": { "type": "Point", "coordinates": [ 39.328766583231946, -5.838183143847758 ] } },
{ "type": "Feature", "properties": { "CODE": "191", "NAME": "Pwani Mchangani" }, "geometry": { "type": "Point", "coordinates": [ 39.355000359567384, -5.92959102276884 ] } },
{ "type": "Feature", "properties": { "CODE": "203", "NAME": "Gamba" }, "geometry": { "type": "Point", "coordinates": [ 39.305235209474155, -5.907997709993749 ] } },
{ "type": "Feature", "properties": { "CODE": "211", "NAME": "Moga" }, "geometry": { "type": "Point", "coordinates": [ 39.290156357063942, -5.909800973603311 ] } },
{ "type": "Feature", "properties": { "CODE": "221", "NAME": "Chaani Masingini" }, "geometry": { "type": "Point", "coordinates": [ 39.298654787110522, -5.926060735171936 ] } },
{ "type": "Feature", "properties": { "CODE": "231", "NAME": "Mchenza Shauri" }, "geometry": { "type": "Point", "coordinates": [ 39.308569712566381, -5.935561599693298 ] } },
{ "type": "Feature", "properties": { "CODE": "241", "NAME": "Chaani Kubwa" }, "geometry": { "type": "Point", "coordinates": [ 39.308336690043319, -5.943234878069648 ] } },
{ "type": "Feature", "properties": { "CODE": "251", "NAME": "Kikobweni" }, "geometry": { "type": "Point", "coordinates": [ 39.315572098826216, -5.954055245232456 ] } },
{ "type": "Feature", "properties": { "CODE": "261", "NAME": "Bandamaji" }, "geometry": { "type": "Point", "coordinates": [ 39.2965652731286, -5.958694490661396 ] } },
{ "type": "Feature", "properties": { "CODE": "271", "NAME": "Kinyasini" }, "geometry": { "type": "Point", "coordinates": [ 39.316049959846616, -5.968282882796722 ] } },
{ "type": "Feature", "properties": { "CODE": "281", "NAME": "Kandwi" }, "geometry": { "type": "Point", "coordinates": [ 39.33522714114077, -5.934053306731558 ] } },
{ "type": "Feature", "properties": { "CODE": "291", "NAME": "Chutama" }, "geometry": { "type": "Point", "coordinates": [ 39.293331211769271, -5.897354667680927 ] } },
{ "type": "Feature", "properties": { "CODE": "301", "NAME": "Kisongoni" }, "geometry": { "type": "Point", "coordinates": [ 39.308083598643783, -5.985167469309542 ] } },
{ "type": "Feature", "properties": { "CODE": "311", "NAME": "Kilindi" }, "geometry": { "type": "Point", "coordinates": [ 39.314214778199819, -5.761894150018368 ] } },
{ "type": "Feature", "properties": { "CODE": "321", "NAME": "Kilimani" }, "geometry": { "type": "Point", "coordinates": [ 39.326266597664336, -5.790650386673758 ] } },
{ "type": "Feature", "properties": { "CODE": "331", "NAME": "Uvivini" }, "geometry": { "type": "Point", "coordinates": [ 39.224260729457285, -5.833211287942539 ] } },
{ "type": "Feature", "properties": { "CODE": "341", "NAME": "Kidombo" }, "geometry": { "type": "Point", "coordinates": [ 39.303167697981607, -5.884134480296233 ] } },
{ "type": "Feature", "properties": { "CODE": "351", "NAME": "Bwereu" }, "geometry": { "type": "Point", "coordinates": [ 39.305673713939818, -5.815050568425809 ] } },
{ "type": "Feature", "properties": { "CODE": "361", "NAME": "Kigomani" }, "geometry": { "type": "Point", "coordinates": [ 39.344516503298998, -5.853106351953778 ] } },
{ "type": "Feature", "properties": { "CODE": "011", "NAME": "Misufini" }, "geometry": { "type": "Point", "coordinates": [ 39.208570826956155, -5.966073427088665 ] } },
{ "type": "Feature", "properties": { "CODE": "021", "NAME": "Makoba" }, "geometry": { "type": "Point", "coordinates": [ 39.209643290062154, -5.955522929100225 ] } },
{ "type": "Feature", "properties": { "CODE": "031", "NAME": "Mangapwani" }, "geometry": { "type": "Point", "coordinates": [ 39.198287256241358, -5.994956134556634 ] } },
{ "type": "Feature", "properties": { "CODE": "041", "NAME": "Fujoni" }, "geometry": { "type": "Point", "coordinates": [ 39.203526426376619, -6.012695301650249 ] } },
{ "type": "Feature", "properties": { "CODE": "051", "NAME": "Kiombamvua" }, "geometry": { "type": "Point", "coordinates": [ 39.210406385662743, -6.028498700742094 ] } },
{ "type": "Feature", "properties": { "CODE": "061", "NAME": "Donge Mchangani" }, "geometry": { "type": "Point", "coordinates": [ 39.226684149858379, -5.929453918175664 ] } },
{ "type": "Feature", "properties": { "CODE": "071", "NAME": "Mkadini" }, "geometry": { "type": "Point", "coordinates": [ 39.227668960444255, -6.034108693691473 ] } },
{ "type": "Feature", "properties": { "CODE": "081", "NAME": "Zingwezingwe" }, "geometry": { "type": "Point", "coordinates": [ 39.224025565983311, -6.005773103679864 ] } },
{ "type": "Feature", "properties": { "CODE": "091", "NAME": "Kitope" }, "geometry": { "type": "Point", "coordinates": [ 39.256755768183105, -6.019578965522419 ] } },
{ "type": "Feature", "properties": { "CODE": "103", "NAME": "Mahonda" }, "geometry": { "type": "Point", "coordinates": [ 39.245797627375843, -5.999900296332723 ] } },
{ "type": "Feature", "properties": { "CODE": "111", "NAME": "Mnyimbi" }, "geometry": { "type": "Point", "coordinates": [ 39.248360022719339, -5.970290569945316 ] } },
{ "type": "Feature", "properties": { "CODE": "121", "NAME": "Donge Mtambile" }, "geometry": { "type": "Point", "coordinates": [ 39.254175940477978, -5.92974338293363 ] } },
{ "type": "Feature", "properties": { "CODE": "131", "NAME": "Kinduni" }, "geometry": { "type": "Point", "coordinates": [ 39.268026777731457, -5.991561095457932 ] } },
{ "type": "Feature", "properties": { "CODE": "141", "NAME": "Donge Karange" }, "geometry": { "type": "Point", "coordinates": [ 39.275804801052409, -5.96140313388964 ] } },
{ "type": "Feature", "properties": { "CODE": "151", "NAME": "Donge Mbiji" }, "geometry": { "type": "Point", "coordinates": [ 39.247908326213846, -5.956187923672915 ] } },
{ "type": "Feature", "properties": { "CODE": "161", "NAME": "Donge Kipange" }, "geometry": { "type": "Point", "coordinates": [ 39.260411747583113, -5.915447090679099 ] } },
{ "type": "Feature", "properties": { "CODE": "171", "NAME": "Donge Vijibweni" }, "geometry": { "type": "Point", "coordinates": [ 39.265106974329946, -5.943088125640535 ] } },
{ "type": "Feature", "properties": { "CODE": "181", "NAME": "Upenja" }, "geometry": { "type": "Point", "coordinates": [ 39.338152034284938, -5.985880654004161 ] } },
{ "type": "Feature", "properties": { "CODE": "191", "NAME": "Kiwengwa" }, "geometry": { "type": "Point", "coordinates": [ 39.370153977089323, -5.994797907390069 ] } },
{ "type": "Feature", "properties": { "CODE": "201", "NAME": "Pangeni" }, "geometry": { "type": "Point", "coordinates": [ 39.317539980963012, -6.004361084384675 ] } },
{ "type": "Feature", "properties": { "CODE": "211", "NAME": "Kilombero" }, "geometry": { "type": "Point", "coordinates": [ 39.332082167929535, -6.023117805853672 ] } },
{ "type": "Feature", "properties": { "CODE": "221", "NAME": "Mgambo" }, "geometry": { "type": "Point", "coordinates": [ 39.291833436750679, -5.989128150016061 ] } },
{ "type": "Feature", "properties": { "CODE": "231", "NAME": "Muwanda" }, "geometry": { "type": "Point", "coordinates": [ 39.229444080584429, -5.909998503379812 ] } },
{ "type": "Feature", "properties": { "CODE": "241", "NAME": "Matetema" }, "geometry": { "type": "Point", "coordinates": [ 39.236756165029284, -6.018974227634799 ] } },
{ "type": "Feature", "properties": { "CODE": "251", "NAME": "Kidanzini" }, "geometry": { "type": "Point", "coordinates": [ 39.207677399074399, -5.981481628989997 ] } },
{ "type": "Feature", "properties": { "CODE": "261", "NAME": "Mbaleni" }, "geometry": { "type": "Point", "coordinates": [ 39.278751924309958, -6.020783030559111 ] } },
{ "type": "Feature", "properties": { "CODE": "271", "NAME": "Mafufuni" }, "geometry": { "type": "Point", "coordinates": [ 39.205415462063627, -5.934329755123518 ] } },
{ "type": "Feature", "properties": { "CODE": "283", "NAME": "Mkataleni" }, "geometry": { "type": "Point", "coordinates": [ 39.2402726315336, -5.985379710163424 ] } },
{ "type": "Feature", "properties": { "CODE": "291", "NAME": "Njia ya Mtoni" }, "geometry": { "type": "Point", "coordinates": [ 39.272316471824368, -5.930080063894124 ] } },
{ "type": "Feature", "properties": { "CODE": "013", "NAME": "Dunga Bweni" }, "geometry": { "type": "Point", "coordinates": [ 39.327549528402649, -6.119150991959867 ] } },
{ "type": "Feature", "properties": { "CODE": "021", "NAME": "Ubago" }, "geometry": { "type": "Point", "coordinates": [ 39.29355953593857, -6.156408625388576 ] } },
{ "type": "Feature", "properties": { "CODE": "031", "NAME": "Kidimni" }, "geometry": { "type": "Point", "coordinates": [ 39.301478703715603, -6.120477426091938 ] } },
{ "type": "Feature", "properties": { "CODE": "041", "NAME": "Machui" }, "geometry": { "type": "Point", "coordinates": [ 39.285778925767531, -6.105038141622742 ] } },
{ "type": "Feature", "properties": { "CODE": "051", "NAME": "Kiboje Mwembeshauri" }, "geometry": { "type": "Point", "coordinates": [ 39.306890295563441, -6.065201251296726 ] } },
{ "type": "Feature", "properties": { "CODE": "061", "NAME": "Miwani" }, "geometry": { "type": "Point", "coordinates": [ 39.287816616761418, -6.080643670795338 ] } },
{ "type": "Feature", "properties": { "CODE": "071", "NAME": "Kiboje Mkwajuni" }, "geometry": { "type": "Point", "coordinates": [ 39.308425923149372, -6.08793352557998 ] } },
{ "type": "Feature", "properties": { "CODE": "081", "NAME": "Ghana" }, "geometry": { "type": "Point", "coordinates": [ 39.295383509609181, -6.043979304958053 ] } },
{ "type": "Feature", "properties": { "CODE": "093", "NAME": "Koani" }, "geometry": { "type": "Point", "coordinates": [ 39.282521083068865, -6.13028841108586 ] } },
{ "type": "Feature", "properties": { "CODE": "101", "NAME": "Mgeni Haji" }, "geometry": { "type": "Point", "coordinates": [ 39.32868972539783, -6.093700797589856 ] } },
{ "type": "Feature", "properties": { "CODE": "111", "NAME": "Uzini" }, "geometry": { "type": "Point", "coordinates": [ 39.33343494403654, -6.079443430917125 ] } },
{ "type": "Feature", "properties": { "CODE": "121", "NAME": "Mitakawani" }, "geometry": { "type": "Point", "coordinates": [ 39.335519517364204, -6.068287041166323 ] } },
{ "type": "Feature", "properties": { "CODE": "131", "NAME": "Tunduni" }, "geometry": { "type": "Point", "coordinates": [ 39.337280241780682, -6.058818521570433 ] } },
{ "type": "Feature", "properties": { "CODE": "141", "NAME": "Bambi" }, "geometry": { "type": "Point", "coordinates": [ 39.366364119132733, -6.073478903648731 ] } },
{ "type": "Feature", "properties": { "CODE": "151", "NAME": "Pagali" }, "geometry": { "type": "Point", "coordinates": [ 39.369986792258459, -6.101180719622466 ] } },
{ "type": "Feature", "properties": { "CODE": "161", "NAME": "Umbuji" }, "geometry": { "type": "Point", "coordinates": [ 39.374212454449427, -6.134719991143742 ] } },
{ "type": "Feature", "properties": { "CODE": "171", "NAME": "Mchangani" }, "geometry": { "type": "Point", "coordinates": [ 39.34778074713364, -6.042487778901466 ] } },
{ "type": "Feature", "properties": { "CODE": "181", "NAME": "Dunga Kiembeni" }, "geometry": { "type": "Point", "coordinates": [ 39.329032942976575, -6.148558194888382 ] } },
{ "type": "Feature", "properties": { "CODE": "191", "NAME": "Ndijani Mseweni" }, "geometry": { "type": "Point", "coordinates": [ 39.345836379419602, -6.194483626902397 ] } },
{ "type": "Feature", "properties": { "CODE": "201", "NAME": "Jendele" }, "geometry": { "type": "Point", "coordinates": [ 39.379068297907679, -6.170251788658223 ] } },
{ "type": "Feature", "properties": { "CODE": "211", "NAME": "Chwaka" }, "geometry": { "type": "Point", "coordinates": [ 39.418978821902741, -6.167467008546775 ] } },
{ "type": "Feature", "properties": { "CODE": "221", "NAME": "Marumbi" }, "geometry": { "type": "Point", "coordinates": [ 39.413992971183625, -6.135754272647469 ] } },
{ "type": "Feature", "properties": { "CODE": "231", "NAME": "Uroa" }, "geometry": { "type": "Point", "coordinates": [ 39.411865173470026, -6.095196369555472 ] } },
{ "type": "Feature", "properties": { "CODE": "241", "NAME": "Pongwe" }, "geometry": { "type": "Point", "coordinates": [ 39.403721419095817, -6.053351006793878 ] } },
{ "type": "Feature", "properties": { "CODE": "253", "NAME": "Jumbi" }, "geometry": { "type": "Point", "coordinates": [ 39.298060569868198, -6.193130590990214 ] } },
{ "type": "Feature", "properties": { "CODE": "261", "NAME": "Tunguu" }, "geometry": { "type": "Point", "coordinates": [ 39.325990423747754, -6.215929044635326 ] } },
{ "type": "Feature", "properties": { "CODE": "271", "NAME": "Binguni" }, "geometry": { "type": "Point", "coordinates": [ 39.325790847157151, -6.172181645931007 ] } },
{ "type": "Feature", "properties": { "CODE": "281", "NAME": "Cheju" }, "geometry": { "type": "Point", "coordinates": [ 39.380602788840243, -6.218805286717441 ] } },
{ "type": "Feature", "properties": { "CODE": "291", "NAME": "Bungi" }, "geometry": { "type": "Point", "coordinates": [ 39.341090692089644, -6.252287631568943 ] } },
{ "type": "Feature", "properties": { "CODE": "301", "NAME": "Unguja Ukuu Kaepwani" }, "geometry": { "type": "Point", "coordinates": [ 39.378202753907146, -6.312237434701482 ] } },
{ "type": "Feature", "properties": { "CODE": "311", "NAME": "Kikungwi" }, "geometry": { "type": "Point", "coordinates": [ 39.351790538105753, -6.282460375512163 ] } },
{ "type": "Feature", "properties": { "CODE": "321", "NAME": "Uzi" }, "geometry": { "type": "Point", "coordinates": [ 39.392439719667379, -6.329776551351726 ] } },
{ "type": "Feature", "properties": { "CODE": "331", "NAME": "Ng'ambwa" }, "geometry": { "type": "Point", "coordinates": [ 39.403050259376116, -6.359397215947238 ] } },
{ "type": "Feature", "properties": { "CODE": "341", "NAME": "Charawe" }, "geometry": { "type": "Point", "coordinates": [ 39.428143675779168, -6.218391766241273 ] } },
{ "type": "Feature", "properties": { "CODE": "351", "NAME": "Ukongoroni" }, "geometry": { "type": "Point", "coordinates": [ 39.463327821072333, -6.225754795242273 ] } },
{ "type": "Feature", "properties": { "CODE": "361", "NAME": "Michamvi" }, "geometry": { "type": "Point", "coordinates": [ 39.508885698624127, -6.153283031914787 ] } },
{ "type": "Feature", "properties": { "CODE": "371", "NAME": "Mpapa" }, "geometry": { "type": "Point", "coordinates": [ 39.340264408112859, -6.101697002888091 ] } },
{ "type": "Feature", "properties": { "CODE": "381", "NAME": "Unguja Ukuu Kaebona" }, "geometry": { "type": "Point", "coordinates": [ 39.375925659712138, -6.277179332656285 ] } },
{ "type": "Feature", "properties": { "CODE": "391", "NAME": "Ndijani Mwembepunda" }, "geometry": { "type": "Point", "coordinates": [ 39.351730656963085, -6.169789825883901 ] } },
{ "type": "Feature", "properties": { "CODE": "401", "NAME": "Tindini" }, "geometry": { "type": "Point", "coordinates": [ 39.370937666177525, -6.299518504647365 ] } },
{ "type": "Feature", "properties": { "CODE": "013", "NAME": "Nganani" }, "geometry": { "type": "Point", "coordinates": [ 39.540185340394942, -6.409606621122262 ] } },
{ "type": "Feature", "properties": { "CODE": "022", "NAME": "Kijini" }, "geometry": { "type": "Point", "coordinates": [ 39.526934897488594, -6.427304811419836 ] } },
{ "type": "Feature", "properties": { "CODE": "031", "NAME": "Mzuri" }, "geometry": { "type": "Point", "coordinates": [ 39.551728851926285, -6.436388226520984 ] } },
{ "type": "Feature", "properties": { "CODE": "041", "NAME": "Kajengwa" }, "geometry": { "type": "Point", "coordinates": [ 39.542052994299191, -6.387404366858479 ] } },
{ "type": "Feature", "properties": { "CODE": "051", "NAME": "Jambiani Kikadini" }, "geometry": { "type": "Point", "coordinates": [ 39.522892191558618, -6.35037328373916 ] } },
{ "type": "Feature", "properties": { "CODE": "061", "NAME": "Mtende" }, "geometry": { "type": "Point", "coordinates": [ 39.52227143933748, -6.456834278330838 ] } },
{ "type": "Feature", "properties": { "CODE": "071", "NAME": "Kibuteni" }, "geometry": { "type": "Point", "coordinates": [ 39.490223962347869, -6.414266403264797 ] } },
{ "type": "Feature", "properties": { "CODE": "081", "NAME": "Kizimkazi Dimbani" }, "geometry": { "type": "Point", "coordinates": [ 39.461418451317911, -6.415384371959823 ] } },
{ "type": "Feature", "properties": { "CODE": "091", "NAME": "Kizimkazi Mkunguni" }, "geometry": { "type": "Point", "coordinates": [ 39.486275038783901, -6.454732457031796 ] } },
{ "type": "Feature", "properties": { "CODE": "101", "NAME": "Muyuni 'A'" }, "geometry": { "type": "Point", "coordinates": [ 39.456053055376685, -6.344953795636276 ] } },
{ "type": "Feature", "properties": { "CODE": "111", "NAME": "Muyuni ' B '" }, "geometry": { "type": "Point", "coordinates": [ 39.46171290097346, -6.364980456096748 ] } },
{ "type": "Feature", "properties": { "CODE": "121", "NAME": "Muyuni ' C '" }, "geometry": { "type": "Point", "coordinates": [ 39.469916133470925, -6.383748955740905 ] } },
{ "type": "Feature", "properties": { "CODE": "131", "NAME": "Pete" }, "geometry": { "type": "Point", "coordinates": [ 39.408108934093718, -6.282033775598578 ] } },
{ "type": "Feature", "properties": { "CODE": "141", "NAME": "Muungoni" }, "geometry": { "type": "Point", "coordinates": [ 39.445674896523045, -6.317012570932223 ] } },
{ "type": "Feature", "properties": { "CODE": "151", "NAME": "Paje" }, "geometry": { "type": "Point", "coordinates": [ 39.501193815751314, -6.276607461185702 ] } },
{ "type": "Feature", "properties": { "CODE": "161", "NAME": "Jambiani Kibigija" }, "geometry": { "type": "Point", "coordinates": [ 39.509046345787567, -6.312184953580359 ] } },
{ "type": "Feature", "properties": { "CODE": "171", "NAME": "Bwejuu" }, "geometry": { "type": "Point", "coordinates": [ 39.503368980669755, -6.24879988751215 ] } },
{ "type": "Feature", "properties": { "CODE": "181", "NAME": "Kitogani" }, "geometry": { "type": "Point", "coordinates": [ 39.447259819913093, -6.281334081793833 ] } },
{ "type": "Feature", "properties": { "CODE": "192", "NAME": "Kiongoni" }, "geometry": { "type": "Point", "coordinates": [ 39.562643822590289, -6.415148264908318 ] } },
{ "type": "Feature", "properties": { "CODE": "201", "NAME": "Tasani" }, "geometry": { "type": "Point", "coordinates": [ 39.562875426291633, -6.42659515740806 ] } },
{ "type": "Feature", "properties": { "CODE": "211", "NAME": "Dongwe" }, "geometry": { "type": "Point", "coordinates": [ 39.512653126042515, -6.214771728519817 ] } },
{ "type": "Feature", "properties": { "CODE": "013", "NAME": "Mwera" }, "geometry": { "type": "Point", "coordinates": [ 39.263816041183027, -6.160705221173932 ] } },
{ "type": "Feature", "properties": { "CODE": "023", "NAME": "Mtoni" }, "geometry": { "type": "Point", "coordinates": [ 39.227546951823079, -6.128597196877427 ] } },
{ "type": "Feature", "properties": { "CODE": "033", "NAME": "Bububu" }, "geometry": { "type": "Point", "coordinates": [ 39.227847894002252, -6.101765907368727 ] } },
{ "type": "Feature", "properties": { "CODE": "041", "NAME": "Chuini" }, "geometry": { "type": "Point", "coordinates": [ 39.221478201749562, -6.067491119330755 ] } },
{ "type": "Feature", "properties": { "CODE": "051", "NAME": "Kama" }, "geometry": { "type": "Point", "coordinates": [ 39.214543042897738, -6.049619960539961 ] } },
{ "type": "Feature", "properties": { "CODE": "061", "NAME": "Mfenesini" }, "geometry": { "type": "Point", "coordinates": [ 39.233367440658462, -6.048716060650369 ] } },
{ "type": "Feature", "properties": { "CODE": "071", "NAME": "Mwakaje" }, "geometry": { "type": "Point", "coordinates": [ 39.258916448662099, -6.046678624436732 ] } },
{ "type": "Feature", "properties": { "CODE": "083", "NAME": "Fuoni Kibondeni" }, "geometry": { "type": "Point", "coordinates": [ 39.279033500162129, -6.212853203648802 ] } },
{ "type": "Feature", "properties": { "CODE": "093", "NAME": "Kianga" }, "geometry": { "type": "Point", "coordinates": [ 39.255075703572544, -6.131005975575591 ] } },
{ "type": "Feature", "properties": { "CODE": "101", "NAME": "Dole" }, "geometry": { "type": "Point", "coordinates": [ 39.25406546311013, -6.106139862483537 ] } },
{ "type": "Feature", "properties": { "CODE": "111", "NAME": "Kizimbani" }, "geometry": { "type": "Point", "coordinates": [ 39.265396622160168, -6.0876138466031 ] } },
{ "type": "Feature", "properties": { "CODE": "121", "NAME": "Mbuzini" }, "geometry": { "type": "Point", "coordinates": [ 39.241930601717911, -6.077482366668816 ] } },
{ "type": "Feature", "properties": { "CODE": "131", "NAME": "Bumbwisudi" }, "geometry": { "type": "Point", "coordinates": [ 39.271571108678216, -6.059004152559387 ] } },
{ "type": "Feature", "properties": { "CODE": "141", "NAME": "Maungani" }, "geometry": { "type": "Point", "coordinates": [ 39.253931717303153, -6.232222012747886 ] } },
{ "type": "Feature", "properties": { "CODE": "151", "NAME": "Shakani" }, "geometry": { "type": "Point", "coordinates": [ 39.239175008328154, -6.248010158535951 ] } },
{ "type": "Feature", "properties": { "CODE": "163", "NAME": "Kiembesamaki" }, "geometry": { "type": "Point", "coordinates": [ 39.215179433816736, -6.213739705421161 ] } },
{ "type": "Feature", "properties": { "CODE": "173", "NAME": "Chukwani" }, "geometry": { "type": "Point", "coordinates": [ 39.219070495322704, -6.237754491584698 ] } },
{ "type": "Feature", "properties": { "CODE": "181", "NAME": "Fumba" }, "geometry": { "type": "Point", "coordinates": [ 39.285520288933526, -6.315074799012051 ] } },
{ "type": "Feature", "properties": { "CODE": "191", "NAME": "Bweleo" }, "geometry": { "type": "Point", "coordinates": [ 39.277232198231289, -6.297704880738378 ] } },
{ "type": "Feature", "properties": { "CODE": "201", "NAME": "Dimani" }, "geometry": { "type": "Point", "coordinates": [ 39.269244489519494, -6.27686688845169 ] } },
{ "type": "Feature", "properties": { "CODE": "211", "NAME": "Kombeni" }, "geometry": { "type": "Point", "coordinates": [ 39.275532681028274, -6.251533788961713 ] } },
{ "type": "Feature", "properties": { "CODE": "222", "NAME": "Mwanakwerekwe" }, "geometry": { "type": "Point", "coordinates": [ 39.232274585713107, -6.17930824798063 ] } },
{ "type": "Feature", "properties": { "CODE": "233", "NAME": "Mto Pepo" }, "geometry": { "type": "Point", "coordinates": [ 39.228980381582417, -6.149699477085256 ] } },
{ "type": "Feature", "properties": { "CODE": "242", "NAME": "Magogoni" }, "geometry": { "type": "Point", "coordinates": [ 39.23611141965231, -6.165268194956035 ] } },
{ "type": "Feature", "properties": { "CODE": "253", "NAME": "Mtoni Kidatu" }, "geometry": { "type": "Point", "coordinates": [ 39.227099279080612, -6.139572980528809 ] } },
{ "type": "Feature", "properties": { "CODE": "263", "NAME": "Mwanyanya" }, "geometry": { "type": "Point", "coordinates": [ 39.225815157438781, -6.112916239118631 ] } },
{ "type": "Feature", "properties": { "CODE": "273", "NAME": "Fuoni Kijitoupele" }, "geometry": { "type": "Point", "coordinates": [ 39.249342310276781, -6.205528322106034 ] } },
{ "type": "Feature", "properties": { "CODE": "283", "NAME": "Tomondo" }, "geometry": { "type": "Point", "coordinates": [ 39.229445625929799, -6.194715763662037 ] } },
{ "type": "Feature", "properties": { "CODE": "292", "NAME": "Welezo" }, "geometry": { "type": "Point", "coordinates": [ 39.22913410725991, -6.158349394725008 ] } },
{ "type": "Feature", "properties": { "CODE": "303", "NAME": "Mtufaani" }, "geometry": { "type": "Point", "coordinates": [ 39.247761369219702, -6.16072425841578 ] } },
{ "type": "Feature", "properties": { "CODE": "313", "NAME": "Sharifu Msa" }, "geometry": { "type": "Point", "coordinates": [ 39.218229283853532, -6.122047283023457 ] } },
{ "type": "Feature", "properties": { "CODE": "323", "NAME": "Kibweni" }, "geometry": { "type": "Point", "coordinates": [ 39.220879577419176, -6.117335811308577 ] } },
{ "type": "Feature", "properties": { "CODE": "333", "NAME": "Kihinani" }, "geometry": { "type": "Point", "coordinates": [ 39.223927287006049, -6.087033095205981 ] } },
{ "type": "Feature", "properties": { "CODE": "342", "NAME": "Mombasa" }, "geometry": { "type": "Point", "coordinates": [ 39.221234360354245, -6.202735712375337 ] } },
{ "type": "Feature", "properties": { "CODE": "353", "NAME": "Kisauni" }, "geometry": { "type": "Point", "coordinates": [ 39.233955648290852, -6.215062268406507 ] } },
{ "type": "Feature", "properties": { "CODE": "362", "NAME": "Meli nne" }, "geometry": { "type": "Point", "coordinates": [ 39.230678876410714, -6.186604154807485 ] } },
{ "type": "Feature", "properties": { "CODE": "373", "NAME": "Pangawe" }, "geometry": { "type": "Point", "coordinates": [ 39.250704728385074, -6.184140391259551 ] } },
{ "type": "Feature", "properties": { "CODE": "383", "NAME": "Kinuni" }, "geometry": { "type": "Point", "coordinates": [ 39.242918807088479, -6.175696332402751 ] } },
{ "type": "Feature", "properties": { "CODE": "391", "NAME": "Nyamanzi" }, "geometry": { "type": "Point", "coordinates": [ 39.249509814182467, -6.266767603028317 ] } },
{ "type": "Feature", "properties": { "CODE": "012", "NAME": "Shangani" }, "geometry": { "type": "Point", "coordinates": [ 39.189634826738157, -6.167100901801507 ] } },
{ "type": "Feature", "properties": { "CODE": "022", "NAME": "Mkunazini" }, "geometry": { "type": "Point", "coordinates": [ 39.192640582277669, -6.166020267063887 ] } },
{ "type": "Feature", "properties": { "CODE": "032", "NAME": "Kiponda" }, "geometry": { "type": "Point", "coordinates": [ 39.192037757558779, -6.162622333483902 ] } },
{ "type": "Feature", "properties": { "CODE": "042", "NAME": "Malindi" }, "geometry": { "type": "Point", "coordinates": [ 39.196530268720018, -6.159830234101745 ] } },
{ "type": "Feature", "properties": { "CODE": "052", "NAME": "Mchangani" }, "geometry": { "type": "Point", "coordinates": [ 39.197802376319487, -6.162420933311024 ] } },
{ "type": "Feature", "properties": { "CODE": "062", "NAME": "Mlandege" }, "geometry": { "type": "Point", "coordinates": [ 39.200614342903656, -6.163738076570832 ] } },
{ "type": "Feature", "properties": { "CODE": "072", "NAME": "Mwembeladu" }, "geometry": { "type": "Point", "coordinates": [ 39.20397986401138, -6.164846577014173 ] } },
{ "type": "Feature", "properties": { "CODE": "082", "NAME": "Gulioni" }, "geometry": { "type": "Point", "coordinates": [ 39.203617586934058, -6.160840279107223 ] } },
{ "type": "Feature", "properties": { "CODE": "092", "NAME": "Makadara" }, "geometry": { "type": "Point", "coordinates": [ 39.207290015240233, -6.160782389464664 ] } },
{ "type": "Feature", "properties": { "CODE": "102", "NAME": "Shaurimoyo" }, "geometry": { "type": "Point", "coordinates": [ 39.209303533862382, -6.157135728473663 ] } },
{ "type": "Feature", "properties": { "CODE": "112", "NAME": "Mwembemakumbi" }, "geometry": { "type": "Point", "coordinates": [ 39.210097384810517, -6.14907262040023 ] } },
{ "type": "Feature", "properties": { "CODE": "122", "NAME": "Chumbuni" }, "geometry": { "type": "Point", "coordinates": [ 39.218079992366839, -6.15549591158124 ] } },
{ "type": "Feature", "properties": { "CODE": "132", "NAME": "Kwamtipura" }, "geometry": { "type": "Point", "coordinates": [ 39.221375050257919, -6.159759028939639 ] } },
{ "type": "Feature", "properties": { "CODE": "142", "NAME": "Kilimahewa Juu" }, "geometry": { "type": "Point", "coordinates": [ 39.223996553456111, -6.16364233754928 ] } },
{ "type": "Feature", "properties": { "CODE": "152", "NAME": "Amani" }, "geometry": { "type": "Point", "coordinates": [ 39.220971338087011, -6.165142730589657 ] } },
{ "type": "Feature", "properties": { "CODE": "162", "NAME": "Nyerere" }, "geometry": { "type": "Point", "coordinates": [ 39.221659222828613, -6.174801748644664 ] } },
{ "type": "Feature", "properties": { "CODE": "172", "NAME": "Sebleni" }, "geometry": { "type": "Point", "coordinates": [ 39.217026474049256, -6.168628145230421 ] } },
{ "type": "Feature", "properties": { "CODE": "182", "NAME": "Magomeni" }, "geometry": { "type": "Point", "coordinates": [ 39.219858423917984, -6.179543497915838 ] } },
{ "type": "Feature", "properties": { "CODE": "192", "NAME": "Mpendae" }, "geometry": { "type": "Point", "coordinates": [ 39.216125660840767, -6.185203423028561 ] } },
{ "type": "Feature", "properties": { "CODE": "202", "NAME": "Urusi" }, "geometry": { "type": "Point", "coordinates": [ 39.209238922546241, -6.180231068954243 ] } },
{ "type": "Feature", "properties": { "CODE": "212", "NAME": "Kilimani" }, "geometry": { "type": "Point", "coordinates": [ 39.204055284763193, -6.183327569715843 ] } },
{ "type": "Feature", "properties": { "CODE": "222", "NAME": "Miembeni" }, "geometry": { "type": "Point", "coordinates": [ 39.20255607076782, -6.174976524873206 ] } },
{ "type": "Feature", "properties": { "CODE": "232", "NAME": "Kikwajuni Juu" }, "geometry": { "type": "Point", "coordinates": [ 39.195826442665506, -6.172955241857056 ] } },
{ "type": "Feature", "properties": { "CODE": "242", "NAME": "Kikwajuni Bondeni" }, "geometry": { "type": "Point", "coordinates": [ 39.195590639439423, -6.169514743474655 ] } },
{ "type": "Feature", "properties": { "CODE": "252", "NAME": "Kisimamajongoo" }, "geometry": { "type": "Point", "coordinates": [ 39.199165123903541, -6.169687117266618 ] } },
{ "type": "Feature", "properties": { "CODE": "262", "NAME": "Vikokotoni" }, "geometry": { "type": "Point", "coordinates": [ 39.1962648776259, -6.165007449356105 ] } },
{ "type": "Feature", "properties": { "CODE": "272", "NAME": "Muembetanga" }, "geometry": { "type": "Point", "coordinates": [ 39.198310301605858, -6.166122420501848 ] } },
{ "type": "Feature", "properties": { "CODE": "282", "NAME": "Mwembeshauri" }, "geometry": { "type": "Point", "coordinates": [ 39.202080457104422, -6.168859679196382 ] } },
{ "type": "Feature", "properties": { "CODE": "292", "NAME": "Rahaleo" }, "geometry": { "type": "Point", "coordinates": [ 39.202520702520772, -6.16660125177266 ] } },
{ "type": "Feature", "properties": { "CODE": "302", "NAME": "Kwaalimsha" }, "geometry": { "type": "Point", "coordinates": [ 39.210653472397318, -6.166436515065717 ] } },
{ "type": "Feature", "properties": { "CODE": "312", "NAME": "Mikunguni" }, "geometry": { "type": "Point", "coordinates": [ 39.207821554279207, -6.165436794138176 ] } },
{ "type": "Feature", "properties": { "CODE": "322", "NAME": "Mkele" }, "geometry": { "type": "Point", "coordinates": [ 39.212915407501143, -6.163104009942851 ] } },
{ "type": "Feature", "properties": { "CODE": "332", "NAME": "Muungano" }, "geometry": { "type": "Point", "coordinates": [ 39.213499837803354, -6.168083980162837 ] } },
{ "type": "Feature", "properties": { "CODE": "342", "NAME": "Sogea" }, "geometry": { "type": "Point", "coordinates": [ 39.216170839488413, -6.172222769038584 ] } },
{ "type": "Feature", "properties": { "CODE": "352", "NAME": "Jang'ombe" }, "geometry": { "type": "Point", "coordinates": [ 39.212180225616962, -6.175682531020525 ] } },
{ "type": "Feature", "properties": { "CODE": "362", "NAME": "Kidongo Chekundu" }, "geometry": { "type": "Point", "coordinates": [ 39.211639547211902, -6.171524146238541 ] } },
{ "type": "Feature", "properties": { "CODE": "372", "NAME": "Matarumbeta" }, "geometry": { "type": "Point", "coordinates": [ 39.209306378629591, -6.173903432108927 ] } },
{ "type": "Feature", "properties": { "CODE": "382", "NAME": "Kwahani" }, "geometry": { "type": "Point", "coordinates": [ 39.208632662320312, -6.169526884255991 ] } },
{ "type": "Feature", "properties": { "CODE": "392", "NAME": "Kwaalinatu" }, "geometry": { "type": "Point", "coordinates": [ 39.205816311323467, -6.172689942726645 ] } },
{ "type": "Feature", "properties": { "CODE": "402", "NAME": "Karakana" }, "geometry": { "type": "Point", "coordinates": [ 39.218331423773108, -6.148139826910889 ] } },
{ "type": "Feature", "properties": { "CODE": "412", "NAME": "Kilimahewa Bondeni" }, "geometry": { "type": "Point", "coordinates": [ 39.218723554790678, -6.162195770403024 ] } },
{ "type": "Feature", "properties": { "CODE": "422", "NAME": "Kwa Wazee" }, "geometry": { "type": "Point", "coordinates": [ 39.222620557277104, -6.169327375686032 ] } },
{ "type": "Feature", "properties": { "CODE": "432", "NAME": "Migombani" }, "geometry": { "type": "Point", "coordinates": [ 39.212510211116282, -6.191086625320231 ] } },
{ "type": "Feature", "properties": { "CODE": "442", "NAME": "Meya" }, "geometry": { "type": "Point", "coordinates": [ 39.215824231704211, -6.176694357721942 ] } },
{ "type": "Feature", "properties": { "CODE": "452", "NAME": "Kisiwandui" }, "geometry": { "type": "Point", "coordinates": [ 39.19658604421037, -6.167713608362468 ] } },
{ "type": "Feature", "properties": { "CODE": "012", "NAME": "Kipangani" }, "geometry": { "type": "Point", "coordinates": [ 39.723716208703081, -5.064237605935357 ] } },
{ "type": "Feature", "properties": { "CODE": "021", "NAME": "Mtambwe Kaskazini" }, "geometry": { "type": "Point", "coordinates": [ 39.71381760340023, -5.095178092174986 ] } },
{ "type": "Feature", "properties": { "CODE": "031", "NAME": "Fundo" }, "geometry": { "type": "Point", "coordinates": [ 39.647651268014123, -5.059773011320876 ] } },
{ "type": "Feature", "properties": { "CODE": "041", "NAME": "Mchanga Mdogo" }, "geometry": { "type": "Point", "coordinates": [ 39.812050006631658, -5.119985678325394 ] } },
{ "type": "Feature", "properties": { "CODE": "051", "NAME": "Kambini" }, "geometry": { "type": "Point", "coordinates": [ 39.810107782149679, -5.133429739602759 ] } },
{ "type": "Feature", "properties": { "CODE": "061", "NAME": "Kojani" }, "geometry": { "type": "Point", "coordinates": [ 39.859172116773195, -5.085536819511348 ] } },
{ "type": "Feature", "properties": { "CODE": "071", "NAME": "Ole" }, "geometry": { "type": "Point", "coordinates": [ 39.810853210622902, -5.189877157141127 ] } },
{ "type": "Feature", "properties": { "CODE": "081", "NAME": "Kangagani" }, "geometry": { "type": "Point", "coordinates": [ 39.847690417490611, -5.149138600828734 ] } },
{ "type": "Feature", "properties": { "CODE": "091", "NAME": "Kiuyu Minungwini" }, "geometry": { "type": "Point", "coordinates": [ 39.816848852160568, -5.148610559122793 ] } },
{ "type": "Feature", "properties": { "CODE": "101", "NAME": "Piki" }, "geometry": { "type": "Point", "coordinates": [ 39.758465850618741, -5.109833085759254 ] } },
{ "type": "Feature", "properties": { "CODE": "111", "NAME": "Kisiwani" }, "geometry": { "type": "Point", "coordinates": [ 39.771715517349087, -5.153694051358237 ] } },
{ "type": "Feature", "properties": { "CODE": "121", "NAME": "Gando" }, "geometry": { "type": "Point", "coordinates": [ 39.699978245098173, -4.992977651656956 ] } },
{ "type": "Feature", "properties": { "CODE": "131", "NAME": "Ukunjwi" }, "geometry": { "type": "Point", "coordinates": [ 39.705409557271665, -5.040976126199458 ] } },
{ "type": "Feature", "properties": { "CODE": "141", "NAME": "Pandani" }, "geometry": { "type": "Point", "coordinates": [ 39.779882440274783, -5.059830589845405 ] } },
{ "type": "Feature", "properties": { "CODE": "151", "NAME": "Shengejuu" }, "geometry": { "type": "Point", "coordinates": [ 39.817194501396855, -5.086279496535111 ] } },
{ "type": "Feature", "properties": { "CODE": "162", "NAME": "Bopwe" }, "geometry": { "type": "Point", "coordinates": [ 39.726416748241185, -5.053109092803103 ] } },
{ "type": "Feature", "properties": { "CODE": "172", "NAME": "Utaani" }, "geometry": { "type": "Point", "coordinates": [ 39.734712846461413, -5.060868283514293 ] } },
{ "type": "Feature", "properties": { "CODE": "181", "NAME": "Mtambwe Kusini" }, "geometry": { "type": "Point", "coordinates": [ 39.718285232544204, -5.135597535343448 ] } },
{ "type": "Feature", "properties": { "CODE": "192", "NAME": "Selem" }, "geometry": { "type": "Point", "coordinates": [ 39.720295458647506, -5.060071225757239 ] } },
{ "type": "Feature", "properties": { "CODE": "201", "NAME": "Kinyikani" }, "geometry": { "type": "Point", "coordinates": [ 39.794558404598973, -5.122619502185803 ] } },
{ "type": "Feature", "properties": { "CODE": "211", "NAME": "Chwale" }, "geometry": { "type": "Point", "coordinates": [ 39.816778117373524, -5.103647323480904 ] } },
{ "type": "Feature", "properties": { "CODE": "221", "NAME": "Maziwani" }, "geometry": { "type": "Point", "coordinates": [ 39.79322986191378, -5.093782930342448 ] } },
{ "type": "Feature", "properties": { "CODE": "231", "NAME": "Mpambani" }, "geometry": { "type": "Point", "coordinates": [ 39.838139353132675, -5.103323826742892 ] } },
{ "type": "Feature", "properties": { "CODE": "241", "NAME": "Mjini Ole" }, "geometry": { "type": "Point", "coordinates": [ 39.829171478319765, -5.180041000452535 ] } },
{ "type": "Feature", "properties": { "CODE": "251", "NAME": "Kiuyu Kigongoni" }, "geometry": { "type": "Point", "coordinates": [ 39.811794856326124, -5.163986295415344 ] } },
{ "type": "Feature", "properties": { "CODE": "261", "NAME": "Mzambarauni Takao" }, "geometry": { "type": "Point", "coordinates": [ 39.773531931773029, -5.09295985047686 ] } },
{ "type": "Feature", "properties": { "CODE": "271", "NAME": "Junguni" }, "geometry": { "type": "Point", "coordinates": [ 39.712033632903626, -5.013821051174491 ] } },
{ "type": "Feature", "properties": { "CODE": "281", "NAME": "Kiungoni" }, "geometry": { "type": "Point", "coordinates": [ 39.815354015730044, -5.052226551998181 ] } },
{ "type": "Feature", "properties": { "CODE": "291", "NAME": "Pembeni" }, "geometry": { "type": "Point", "coordinates": [ 39.81311942074322, -5.068592311034737 ] } },
{ "type": "Feature", "properties": { "CODE": "302", "NAME": "Kizimbani" }, "geometry": { "type": "Point", "coordinates": [ 39.736512304973964, -5.05239543321369 ] } },
{ "type": "Feature", "properties": { "CODE": "312", "NAME": "Limbani" }, "geometry": { "type": "Point", "coordinates": [ 39.751177899561718, -5.065147163469759 ] } },
{ "type": "Feature", "properties": { "CODE": "322", "NAME": "Jadida" }, "geometry": { "type": "Point", "coordinates": [ 39.730546123743522, -5.06753395861571 ] } },
{ "type": "Feature", "properties": { "CODE": "013", "NAME": "Micheweni" }, "geometry": { "type": "Point", "coordinates": [ 39.841608927337809, -4.977492031455649 ] } },
{ "type": "Feature", "properties": { "CODE": "021", "NAME": "Msuka Mashariki" }, "geometry": { "type": "Point", "coordinates": [ 39.74894017730734, -4.926649696298045 ] } },
{ "type": "Feature", "properties": { "CODE": "031", "NAME": "Kinowe" }, "geometry": { "type": "Point", "coordinates": [ 39.766008302047894, -4.945426350565929 ] } },
{ "type": "Feature", "properties": { "CODE": "041", "NAME": "Tumbe Mashariki" }, "geometry": { "type": "Point", "coordinates": [ 39.795083459672767, -4.960010738418264 ] } },
{ "type": "Feature", "properties": { "CODE": "051", "NAME": "Mgogoni" }, "geometry": { "type": "Point", "coordinates": [ 39.735873170481966, -4.998940834493608 ] } },
{ "type": "Feature", "properties": { "CODE": "061", "NAME": "Shumba Viamboni" }, "geometry": { "type": "Point", "coordinates": [ 39.768179562738084, -4.996683810275873 ] } },
{ "type": "Feature", "properties": { "CODE": "071", "NAME": "Finya" }, "geometry": { "type": "Point", "coordinates": [ 39.764924008341694, -5.03333326426857 ] } },
{ "type": "Feature", "properties": { "CODE": "083", "NAME": "Konde" }, "geometry": { "type": "Point", "coordinates": [ 39.733655082547727, -4.948693068470793 ] } },
{ "type": "Feature", "properties": { "CODE": "091", "NAME": "Wingwi Mapofu" }, "geometry": { "type": "Point", "coordinates": [ 39.803286204093737, -5.01608610215023 ] } },
{ "type": "Feature", "properties": { "CODE": "101", "NAME": "Kiuyu Mbuyuni" }, "geometry": { "type": "Point", "coordinates": [ 39.864759012776737, -4.937218974921595 ] } },
{ "type": "Feature", "properties": { "CODE": "111", "NAME": "Makangale" }, "geometry": { "type": "Point", "coordinates": [ 39.694173472394297, -4.907543411680224 ] } },
{ "type": "Feature", "properties": { "CODE": "121", "NAME": "Wingwi Njuguni" }, "geometry": { "type": "Point", "coordinates": [ 39.810100102447372, -5.02750721396604 ] } },
{ "type": "Feature", "properties": { "CODE": "131", "NAME": "Shumba Mjini" }, "geometry": { "type": "Point", "coordinates": [ 39.827206778085987, -4.953585410188085 ] } },
{ "type": "Feature", "properties": { "CODE": "142", "NAME": "Majenzi" }, "geometry": { "type": "Point", "coordinates": [ 39.832063322560749, -4.986023281537589 ] } },
{ "type": "Feature", "properties": { "CODE": "151", "NAME": "Mjini Wingwi" }, "geometry": { "type": "Point", "coordinates": [ 39.843160134141392, -5.001853878751772 ] } },
{ "type": "Feature", "properties": { "CODE": "161", "NAME": "Msuka Magharibi" }, "geometry": { "type": "Point", "coordinates": [ 39.728535872947532, -4.925489259421555 ] } },
{ "type": "Feature", "properties": { "CODE": "171", "NAME": "Chimba" }, "geometry": { "type": "Point", "coordinates": [ 39.761388050125404, -4.975397437333231 ] } },
{ "type": "Feature", "properties": { "CODE": "181", "NAME": "Tumbe Magharibi" }, "geometry": { "type": "Point", "coordinates": [ 39.78069933974291, -4.95118381124458 ] } },
{ "type": "Feature", "properties": { "CODE": "191", "NAME": "Sizini" }, "geometry": { "type": "Point", "coordinates": [ 39.808062648681918, -4.989042497558491 ] } },
{ "type": "Feature", "properties": { "CODE": "201", "NAME": "Kinyasini" }, "geometry": { "type": "Point", "coordinates": [ 39.743618136028545, -5.023141879918352 ] } },
{ "type": "Feature", "properties": { "CODE": "211", "NAME": "Mihogoni" }, "geometry": { "type": "Point", "coordinates": [ 39.786772800025531, -4.994339702089867 ] } },
{ "type": "Feature", "properties": { "CODE": "221", "NAME": "Kifundi" }, "geometry": { "type": "Point", "coordinates": [ 39.726698947493034, -4.972033529131806 ] } },
{ "type": "Feature", "properties": { "CODE": "231", "NAME": "Maziwa Ng'ombe" }, "geometry": { "type": "Point", "coordinates": [ 39.862930658098776, -4.994322567239385 ] } },
{ "type": "Feature", "properties": { "CODE": "241", "NAME": "Tondooni" }, "geometry": { "type": "Point", "coordinates": [ 39.694088999112104, -4.943010917375575 ] } },
{ "type": "Feature", "properties": { "CODE": "251", "NAME": "Mtemani" }, "geometry": { "type": "Point", "coordinates": [ 39.82961298153095, -5.029962878224516 ] } },
{ "type": "Feature", "properties": { "CODE": "261", "NAME": "Wingwi Mjananza" }, "geometry": { "type": "Point", "coordinates": [ 39.827151417819564, -5.043459851692567 ] } },
{ "type": "Feature", "properties": { "CODE": "271", "NAME": "Mlindo" }, "geometry": { "type": "Point", "coordinates": [ 39.797710400564497, -5.034461968466801 ] } },
{ "type": "Feature", "properties": { "CODE": "013", "NAME": "Chanjaani" }, "geometry": { "type": "Point", "coordinates": [ 39.770960116845366, -5.266142505958889 ] } },
{ "type": "Feature", "properties": { "CODE": "021", "NAME": "Wawi" }, "geometry": { "type": "Point", "coordinates": [ 39.79974789646392, -5.241985554987952 ] } },
{ "type": "Feature", "properties": { "CODE": "031", "NAME": "Pujini" }, "geometry": { "type": "Point", "coordinates": [ 39.814538629031219, -5.294417113416015 ] } },
{ "type": "Feature", "properties": { "CODE": "041", "NAME": "Ziwani" }, "geometry": { "type": "Point", "coordinates": [ 39.765165764301827, -5.179406524935668 ] } },
{ "type": "Feature", "properties": { "CODE": "051", "NAME": "Ndagoni" }, "geometry": { "type": "Point", "coordinates": [ 39.689395568923914, -5.212114707790209 ] } },
{ "type": "Feature", "properties": { "CODE": "061", "NAME": "Kwale" }, "geometry": { "type": "Point", "coordinates": [ 39.76692191811042, -5.201448849133803 ] } },
{ "type": "Feature", "properties": { "CODE": "071", "NAME": "Vitongoji" }, "geometry": { "type": "Point", "coordinates": [ 39.832087826595313, -5.222728976360082 ] } },
{ "type": "Feature", "properties": { "CODE": "083", "NAME": "Ng'ambwa1" }, "geometry": { "type": "Point", "coordinates": [ 39.794089672798229, -5.218082387483125 ] } },
{ "type": "Feature", "properties": { "CODE": "091", "NAME": "Shungi" }, "geometry": { "type": "Point", "coordinates": [ 39.75026455413434, -5.277751208609639 ] } },
{ "type": "Feature", "properties": { "CODE": "101", "NAME": "Chonga" }, "geometry": { "type": "Point", "coordinates": [ 39.738364581306385, -5.304799615503704 ] } },
{ "type": "Feature", "properties": { "CODE": "111", "NAME": "Mgelema" }, "geometry": { "type": "Point", "coordinates": [ 39.712190316407771, -5.30252437806776 ] } },
{ "type": "Feature", "properties": { "CODE": "121", "NAME": "Kilindi" }, "geometry": { "type": "Point", "coordinates": [ 39.718339264401564, -5.267014363552532 ] } },
{ "type": "Feature", "properties": { "CODE": "132", "NAME": "Tibirinzi" }, "geometry": { "type": "Point", "coordinates": [ 39.76048053924157, -5.234513637762842 ] } },
{ "type": "Feature", "properties": { "CODE": "142", "NAME": "Chachani" }, "geometry": { "type": "Point", "coordinates": [ 39.769261069250945, -5.246029150084631 ] } },
{ "type": "Feature", "properties": { "CODE": "152", "NAME": "Wara" }, "geometry": { "type": "Point", "coordinates": [ 39.783230672114385, -5.236948183803383 ] } },
{ "type": "Feature", "properties": { "CODE": "161", "NAME": "Mvumoni" }, "geometry": { "type": "Point", "coordinates": [ 39.81696977847745, -5.264141705822401 ] } },
{ "type": "Feature", "properties": { "CODE": "171", "NAME": "Matale" }, "geometry": { "type": "Point", "coordinates": [ 39.77261616827294, -5.303269511968825 ] } },
{ "type": "Feature", "properties": { "CODE": "181", "NAME": "Wesha" }, "geometry": { "type": "Point", "coordinates": [ 39.736381387345588, -5.223629810010945 ] } },
{ "type": "Feature", "properties": { "CODE": "191", "NAME": "Uwandani" }, "geometry": { "type": "Point", "coordinates": [ 39.835042421724296, -5.201973309258836 ] } },
{ "type": "Feature", "properties": { "CODE": "202", "NAME": "Madungu" }, "geometry": { "type": "Point", "coordinates": [ 39.77257088418223, -5.253009249468118 ] } },
{ "type": "Feature", "properties": { "CODE": "211", "NAME": "Mgogoni" }, "geometry": { "type": "Point", "coordinates": [ 39.78805842073001, -5.258003302713512 ] } },
{ "type": "Feature", "properties": { "CODE": "221", "NAME": "Dodo" }, "geometry": { "type": "Point", "coordinates": [ 39.795734312296993, -5.310594444138097 ] } },
{ "type": "Feature", "properties": { "CODE": "231", "NAME": "Mbuzini" }, "geometry": { "type": "Point", "coordinates": [ 39.785996395562307, -5.194948334482331 ] } },
{ "type": "Feature", "properties": { "CODE": "241", "NAME": "Michungwani" }, "geometry": { "type": "Point", "coordinates": [ 39.757175527230451, -5.211932865857257 ] } },
{ "type": "Feature", "properties": { "CODE": "251", "NAME": "Kibokoni" }, "geometry": { "type": "Point", "coordinates": [ 39.831662547378158, -5.247125783497773 ] } },
{ "type": "Feature", "properties": { "CODE": "262", "NAME": "Kichungwani" }, "geometry": { "type": "Point", "coordinates": [ 39.761030675241194, -5.251859931925412 ] } },
{ "type": "Feature", "properties": { "CODE": "272", "NAME": "Msingini" }, "geometry": { "type": "Point", "coordinates": [ 39.772566160439389, -5.244851672562905 ] } },
{ "type": "Feature", "properties": { "CODE": "282", "NAME": "Mkoroshoni" }, "geometry": { "type": "Point", "coordinates": [ 39.777713288019093, -5.232148796216306 ] } },
{ "type": "Feature", "properties": { "CODE": "291", "NAME": "Mfikiwa" }, "geometry": { "type": "Point", "coordinates": [ 39.796576069836853, -5.275350960079898 ] } },
{ "type": "Feature", "properties": { "CODE": "012", "NAME": "Ng'ombeni" }, "geometry": { "type": "Point", "coordinates": [ 39.648108977423476, -5.353134207326687 ] } },
{ "type": "Feature", "properties": { "CODE": "021", "NAME": "Makombeni" }, "geometry": { "type": "Point", "coordinates": [ 39.6561685073859, -5.340647802912994 ] } },
{ "type": "Feature", "properties": { "CODE": "031", "NAME": "Makoongwe" }, "geometry": { "type": "Point", "coordinates": [ 39.620300688845809, -5.381251542757093 ] } },
{ "type": "Feature", "properties": { "CODE": "041", "NAME": "Shidi" }, "geometry": { "type": "Point", "coordinates": [ 39.653147084919063, -5.388440597706818 ] } },
{ "type": "Feature", "properties": { "CODE": "051", "NAME": "Mkanyageni" }, "geometry": { "type": "Point", "coordinates": [ 39.668548385417012, -5.407184790941101 ] } },
{ "type": "Feature", "properties": { "CODE": "061", "NAME": "Michenzani" }, "geometry": { "type": "Point", "coordinates": [ 39.640186863307278, -5.402033409707178 ] } },
{ "type": "Feature", "properties": { "CODE": "071", "NAME": "Chokocho" }, "geometry": { "type": "Point", "coordinates": [ 39.653863850331724, -5.426513876329027 ] } },
{ "type": "Feature", "properties": { "CODE": "081", "NAME": "Kisiwa Panza" }, "geometry": { "type": "Point", "coordinates": [ 39.62070565892904, -5.448929420033028 ] } },
{ "type": "Feature", "properties": { "CODE": "091", "NAME": "Kangani" }, "geometry": { "type": "Point", "coordinates": [ 39.692050969897096, -5.425410260642071 ] } },
{ "type": "Feature", "properties": { "CODE": "103", "NAME": "Kengeja" }, "geometry": { "type": "Point", "coordinates": [ 39.724207198956179, -5.424958662696879 ] } },
{ "type": "Feature", "properties": { "CODE": "111", "NAME": "Muambe" }, "geometry": { "type": "Point", "coordinates": [ 39.748363544444672, -5.430138743775684 ] } },
{ "type": "Feature", "properties": { "CODE": "121", "NAME": "Kiwani" }, "geometry": { "type": "Point", "coordinates": [ 39.774905387413988, -5.403452176176962 ] } },
{ "type": "Feature", "properties": { "CODE": "133", "NAME": "Mtambile" }, "geometry": { "type": "Point", "coordinates": [ 39.699431993492539, -5.380307363777071 ] } },
{ "type": "Feature", "properties": { "CODE": "141", "NAME": "Mizingani" }, "geometry": { "type": "Point", "coordinates": [ 39.701479298361754, -5.357052747911145 ] } },
{ "type": "Feature", "properties": { "CODE": "151", "NAME": "Ngwachani" }, "geometry": { "type": "Point", "coordinates": [ 39.742216692320063, -5.330294675635038 ] } },
{ "type": "Feature", "properties": { "CODE": "161", "NAME": "Chambani" }, "geometry": { "type": "Point", "coordinates": [ 39.785068093873882, -5.34530462590694 ] } },
{ "type": "Feature", "properties": { "CODE": "171", "NAME": "Wambaa" }, "geometry": { "type": "Point", "coordinates": [ 39.682695115334582, -5.299329345726814 ] } },
{ "type": "Feature", "properties": { "CODE": "183", "NAME": "Mbuguani" }, "geometry": { "type": "Point", "coordinates": [ 39.669649911701626, -5.353573819500673 ] } },
{ "type": "Feature", "properties": { "CODE": "192", "NAME": "Uweleni" }, "geometry": { "type": "Point", "coordinates": [ 39.653979226098087, -5.364051666403584 ] } },
{ "type": "Feature", "properties": { "CODE": "201", "NAME": "Mtangani" }, "geometry": { "type": "Point", "coordinates": [ 39.769877200997776, -5.377346089081531 ] } },
{ "type": "Feature", "properties": { "CODE": "211", "NAME": "Ukutini" }, "geometry": { "type": "Point", "coordinates": [ 39.756777834950022, -5.351564147342997 ] } },
{ "type": "Feature", "properties": { "CODE": "221", "NAME": "Chumbageni" }, "geometry": { "type": "Point", "coordinates": [ 39.696946428724381, -5.327045671236596 ] } },
{ "type": "Feature", "properties": { "CODE": "232", "NAME": "Mbuyuni" }, "geometry": { "type": "Point", "coordinates": [ 39.646012662477787, -5.36930742643567 ] } },
{ "type": "Feature", "properties": { "CODE": "241", "NAME": "Stahabu" }, "geometry": { "type": "Point", "coordinates": [ 39.644682831992696, -5.414304752580897 ] } },
{ "type": "Feature", "properties": { "CODE": "251", "NAME": "Kuukuu" }, "geometry": { "type": "Point", "coordinates": [ 39.702592144865172, -5.443579310997009 ] } },
{ "type": "Feature", "properties": { "CODE": "261", "NAME": "Mjimbini" }, "geometry": { "type": "Point", "coordinates": [ 39.691869948022017, -5.405079377958461 ] } },
{ "type": "Feature", "properties": { "CODE": "271", "NAME": "Shamiani" }, "geometry": { "type": "Point", "coordinates": [ 39.73309114146074, -5.454174928557267 ] } },
{ "type": "Feature", "properties": { "CODE": "281", "NAME": "Jombwe" }, "geometry": { "type": "Point", "coordinates": [ 39.759941473357792, -5.421386949818041 ] } },
{ "type": "Feature", "properties": { "CODE": "291", "NAME": "Kendwa" }, "geometry": { "type": "Point", "coordinates": [ 39.743032119363143, -5.388824510791363 ] } },
{ "type": "Feature", "properties": { "CODE": "301", "NAME": "Minazini" }, "geometry": { "type": "Point", "coordinates": [ 39.726568613663133, -5.372983478718002 ] } },
{ "type": "Feature", "properties": { "CODE": "311", "NAME": "Mgagadu" }, "geometry": { "type": "Point", "coordinates": [ 39.725659768423924, -5.34532095821171 ] } },
{ "type": "Feature", "properties": { "CODE": "321", "NAME": "Mkungu" }, "geometry": { "type": "Point", "coordinates": [ 39.718385598207369, -5.403184831905991 ] } },
{ "type": "Feature", "properties": { "CODE": "333", "NAME": "Changaweni" }, "geometry": { "type": "Point", "coordinates": [ 39.672847815722349, -5.373375357271716 ] } }
]
}
